City_ID,City,Lat,Lng,Max Temp,Humidity,Cloudiness,Wind Speed,Country
0,bluff,-46.6,168.3333,52.81,98,90,14.05,NZ
1,boali,4.8005,18.1275,85.41,57,72,1.36,CF
2,oriximina,-1.7656,-55.8661,85.3,47,100,1.88,BR
3,bredasdorp,-34.5322,20.0403,72.43,33,99,17.16,ZA
4,la paz,-16.5,-68.15,46.38,81,40,2.3,BO
5,hobart,-42.8794,147.3294,55.26,80,40,8.05,AU
6,mulatupo,8.9492,-77.7652,75.38,92,100,4.47,PA
7,dunedin,-45.8742,170.5036,55.8,98,100,3.0,NZ
8,jamestown,42.097,-79.2353,28.71,61,100,20.71,US
9,albany,42.6001,-73.9662,32.41,81,93,8.05,US
10,lebu,-37.6167,-73.65,58.41,89,58,5.28,CL
11,lasa,46.6166,10.7002,54.01,64,92,7.7,IT
12,hithadhoo,-0.6,73.0833,81.57,78,41,14.88,MV
13,bairiki,1.3292,172.9752,82.4,74,75,8.05,KI
14,nemuro,43.3236,145.575,39.78,57,90,1.14,JP
15,khatanga,71.9667,102.5,-19.86,88,94,8.23,RU
16,seoul,37.5683,126.9778,47.8,76,0,3.44,KR
17,paamiut,61.994,-49.6678,23.02,72,100,1.14,GL
18,puerto ayora,-0.7393,-90.3518,69.55,88,24,5.99,EC
19,nassau,40.7507,-73.5829,37.08,73,0,5.75,US
20,rikitea,-23.1203,-134.9692,71.38,71,95,10.36,PF
21,flinders,-34.5833,150.8552,56.37,84,12,3.31,AU
22,kaitangata,-46.2817,169.8464,53.55,98,100,6.96,NZ
23,barrow,71.2906,-156.7887,33.82,93,100,12.66,US
24,thap than,15.4606,99.8917,79.7,79,99,2.64,TH
25,chirongui,-12.9319,45.1483,84.13,74,12,6.44,YT
26,port alfred,-33.5906,26.891,70.18,80,100,5.01,ZA
27,punta arenas,-53.15,-70.9167,51.91,43,75,26.46,CL
28,busselton,-33.65,115.3333,51.03,65,53,12.01,AU
29,stornoway,58.2093,-6.3865,48.16,88,75,12.66,GB
30,ahipara,-35.1667,173.1667,58.86,89,50,11.74,NZ
31,port elizabeth,-33.918,25.5701,70.09,68,75,9.22,ZA
32,chokurdakh,70.6333,147.9167,-5.6,99,100,5.23,RU
33,praia,14.9215,-23.5087,82.94,65,0,23.02,CV
34,ushuaia,-54.8,-68.3,53.26,40,40,13.8,AR
35,makinsk,52.6292,70.4169,3.25,99,56,2.53,KZ
36,newport,51.5877,-2.9984,54.09,76,82,15.84,GB
37,muravlenko,63.7898,74.523,12.07,93,100,23.8,RU
38,yulara,-25.2406,130.9889,85.6,26,60,17.9,AU
39,mataura,-46.1927,168.8643,54.14,93,78,4.45,NZ
40,mar del plata,-38.0023,-57.5575,67.82,96,100,11.5,AR
41,saldanha,-33.0117,17.9442,63.61,57,88,10.22,ZA
42,east london,-33.0153,27.9116,70.74,83,75,12.66,ZA
43,husavik,66.0449,-17.3389,44.69,83,100,14.25,IS
44,kyaikto,17.3,97.0167,81.09,80,67,0.98,MM
45,dzilam gonzalez,21.2833,-88.9333,71.49,90,34,9.66,MX
46,gorontalo,0.5412,123.0595,77.29,92,100,2.19,ID
47,sidi ali,36.0998,0.4206,67.91,64,53,15.79,DZ
48,tiksi,71.6872,128.8694,-9.09,92,100,7.27,RU
49,vila franca do campo,37.7167,-25.4333,62.2,56,35,3.15,PT
50,saint george,37.1041,-113.5841,34.39,55,0,0.0,US
51,hermanus,-34.4187,19.2345,69.8,55,86,13.44,ZA
52,hami,42.8,93.45,37.29,47,34,4.45,CN
53,cape town,-33.9258,18.4232,73.11,48,75,11.99,ZA
54,tuktoyaktuk,69.4541,-133.0374,12.16,80,54,6.89,CA
55,starokostyantyniv,49.7576,27.2034,31.73,93,82,8.03,UA
56,katsuura,35.1333,140.3,59.67,76,90,7.56,JP
57,arraial do cabo,-22.9661,-42.0278,75.16,60,40,6.91,BR
58,kupang,-10.1667,123.5833,82.27,78,85,5.66,ID
59,sept-iles,50.2001,-66.3821,23.0,79,75,10.36,CA
60,vila velha,-20.3297,-40.2925,76.95,74,20,16.11,BR
61,kushiro,42.975,144.3747,34.75,69,75,4.61,JP
62,tasiilaq,65.6145,-37.6368,39.36,95,100,21.59,GL
63,nouadhibou,20.931,-17.0347,76.98,31,0,14.97,MR
64,asfi,32.2994,-9.2372,69.58,70,28,8.41,MA
65,tecpan,14.7623,-90.9947,53.89,98,78,5.68,GT
66,balboa,2.0396,-77.2168,60.51,97,100,1.54,CO
67,cabo san lucas,22.8909,-109.9124,73.51,74,29,1.99,MX
68,flin flon,54.7682,-101.865,19.51,91,100,12.82,CA
69,hilo,19.7297,-155.09,74.25,89,100,4.61,US
70,hofn,64.2539,-15.2082,46.42,93,100,17.27,IS
71,whitehorse,60.7161,-135.0538,9.37,84,100,5.75,CA
72,belmonte,-15.8631,-38.8828,75.79,87,100,8.34,BR
73,kahului,20.8947,-156.47,75.85,81,0,3.0,US
74,ilulissat,69.2167,-51.1,24.82,74,75,18.41,GL
75,port hardy,50.6996,-127.4199,26.78,100,20,3.44,CA
76,umm kaddadah,13.6017,26.6876,86.29,11,12,12.66,SD
77,mobara,35.4167,140.3,59.0,79,77,5.7,JP
78,cabra,37.4725,-4.4421,54.07,78,100,5.86,ES
79,qaanaaq,77.484,-69.3632,-10.28,60,57,6.96,GL
80,sao joao da barra,-21.6403,-41.0511,77.09,65,0,10.71,BR
81,kapaa,22.0752,-159.319,75.52,89,75,9.22,US
82,fairbanks,64.8378,-147.7164,13.6,85,20,0.0,US
83,ust-ilimsk,58.0006,102.6619,-5.58,99,32,3.8,RU
84,batagay-alyta,67.8006,130.4114,-19.21,93,98,1.14,RU
85,longyearbyen,78.2186,15.6401,37.24,81,75,3.44,SJ
86,vaini,-21.2,-175.2,71.76,100,20,2.3,TO
87,bathsheba,13.2167,-59.5167,81.21,78,40,20.71,BB
88,kodiak,57.79,-152.4072,42.31,87,100,10.36,US
89,fortuna,40.5982,-124.1573,41.92,93,0,5.75,US
90,praya,14.9215,-23.5087,82.94,65,0,23.02,CV
91,noshiro,40.2039,140.0242,46.29,80,75,3.18,JP
92,nome,64.5011,-165.4064,33.87,100,100,8.05,US
93,butaritari,3.0707,172.7902,80.73,82,44,12.39,KI
94,maridi,4.9158,29.4742,84.42,52,26,4.63,SS
95,sao filipe,14.8961,-24.4956,81.82,63,100,7.43,CV
96,grand gaube,-20.0064,57.6608,79.2,54,9,3.0,MU
97,umarkot,25.3616,69.7362,85.78,21,0,4.05,PK
98,okhotsk,59.3833,143.3,-1.61,76,8,10.18,RU
99,avarua,-21.2078,-159.775,73.45,88,75,8.05,CK
100,peace river,56.2501,-117.286,10.65,96,0,0.0,CA
101,chardara,41.2547,67.9692,57.99,37,100,16.6,KZ
102,kutum,14.2,24.6667,80.92,15,2,5.48,SD
103,los andes,-32.8337,-70.5983,68.02,47,1,3.38,CL
104,raudeberg,61.9875,5.1352,50.67,44,1,11.61,NO
105,mana,5.6592,-53.7767,82.4,71,79,7.27,GF
106,trairi,-3.2778,-39.2689,86.13,54,26,12.21,BR
107,flic en flac,-20.2742,57.3631,79.36,60,13,5.7,MU
108,lahat,-3.8,103.5333,76.17,87,95,3.13,ID
109,carnarvon,-24.8667,113.6333,65.23,54,4,23.29,AU
110,terney,45.0503,136.6092,32.88,81,12,9.86,RU
111,salinopolis,-0.6136,-47.3561,83.14,67,84,10.49,BR
112,nzerekore,7.7562,-8.8179,87.01,27,21,4.18,GN
113,severo-kurilsk,50.6789,156.125,33.19,71,87,17.18,RU
114,lakatoro,-16.0999,167.4164,81.27,78,39,3.47,VU
115,abu samrah,35.3029,37.1841,67.96,42,9,6.17,SY
116,vilyuysk,63.7553,121.6247,-29.88,100,20,3.06,RU
117,new norfolk,-42.7826,147.0587,54.9,69,76,1.01,AU
118,clyde river,70.4692,-68.5914,-1.97,78,100,8.05,CA
119,misratah,32.3754,15.0925,75.07,45,0,6.31,LY
120,saint-georges,12.0564,-61.7485,80.28,83,20,11.5,GD
121,iqaluit,63.7506,-68.5145,13.73,79,100,8.05,CA
122,buarcos,40.166,-8.8768,59.67,63,13,17.25,PT
123,georgetown,5.4112,100.3354,85.95,78,20,13.8,MY
124,san cristobal,7.7669,-72.225,66.38,85,100,2.95,VE
125,peniche,39.3558,-9.3811,64.29,70,6,20.31,PT
126,carutapera,-1.195,-46.02,84.38,64,53,8.88,BR
127,la ronge,55.1001,-105.2842,21.45,63,75,14.97,CA
128,waingapu,-9.6567,120.2641,78.94,80,100,10.2,ID
129,ossora,59.2353,163.0719,18.82,68,32,13.06,RU
130,tucuman,-26.8241,-65.2226,73.4,60,6,4.61,AR
131,nikolskoye,59.7035,30.7861,28.29,57,7,8.48,RU
132,cayenne,4.9333,-52.3333,80.64,83,0,0.0,GF
133,codrington,-38.2667,141.9667,63.7,55,100,9.66,AU
134,pisco,-13.7,-76.2167,57.25,88,94,2.3,PE
135,torbay,47.6666,-52.7314,38.5,85,40,29.93,CA
136,isangel,-19.55,169.2667,77.76,84,35,4.92,VU
137,sitka,57.0531,-135.33,39.09,81,0,9.22,US
138,dikson,73.5069,80.5464,-4.67,94,100,25.7,RU
139,shellbrook,53.2168,-106.4011,18.63,77,100,15.59,CA
140,provideniya,64.3833,-173.3,27.23,97,96,0.85,RU
141,tabuk,17.4189,121.4443,75.52,84,61,3.87,PH
142,berlevag,70.8578,29.0864,35.4,86,0,14.97,NO
143,inuvik,68.3499,-133.7218,27.61,58,40,3.44,CA
144,atuona,-9.8,-139.0333,76.78,76,23,10.76,PF
145,zelenoborskiy,66.845,32.3622,33.26,88,99,3.67,RU
146,faya,18.3851,42.4509,75.31,57,6,9.75,SA
147,saint-philippe,-21.3585,55.7679,78.39,66,22,6.55,RE
148,jinan,36.6683,116.9972,58.39,46,100,3.94,CN
149,talegaon dabhade,18.7167,73.6833,74.88,35,1,5.39,IN
150,rafai,4.95,23.9167,92.41,26,75,4.27,CF
151,tautira,-17.7333,-149.15,75.25,88,75,8.25,PF
152,gravdal,68.1214,13.5031,35.49,64,0,2.3,NO
153,cherskiy,68.75,161.3,-33.3,100,81,5.37,RU
154,san carlos,9.6612,-68.5827,71.98,99,100,1.88,VE
155,bengkulu,-3.8004,102.2655,77.05,89,72,8.48,ID
156,poum,-20.2333,164.0167,77.86,76,77,17.38,NC
157,bheramara,24.0232,88.9925,74.48,50,9,7.58,BD
158,laguna,38.421,-121.4238,52.02,97,0,4.61,US
159,progreso,21.2833,-89.6667,73.11,87,12,15.46,MX
160,warwick,41.7001,-71.4162,36.45,74,20,0.0,US
161,kuytun,54.3419,101.5036,11.17,90,66,3.44,RU
162,qaqortoq,60.7167,-46.0333,13.84,88,98,6.6,GL
163,caravelas,-17.7125,-39.2481,73.29,89,100,12.28,BR
164,souillac,-20.5167,57.5167,79.18,53,40,6.91,MU
165,upington,-28.4478,21.2561,91.78,8,0,8.05,ZA
166,narsaq,60.9167,-46.05,17.82,90,92,7.16,GL
167,parker,32.7668,-97.8003,41.7,75,22,9.64,US
168,kavieng,-2.5744,150.7967,81.52,69,93,8.72,PG
169,kamen-rybolov,44.7481,132.0403,29.97,80,5,5.91,RU
170,trinidad,-14.8333,-64.9,76.98,88,72,5.75,BO
171,svendborg,55.0598,10.6068,41.86,61,98,22.79,DK
172,yuci,37.6803,112.7319,44.35,76,100,2.24,CN
173,san jose,37.3394,-121.895,52.47,78,75,1.01,US
174,auki,-8.7676,160.7034,76.59,82,100,3.06,SB
175,victoria,22.2855,114.1577,79.18,80,0,15.01,HK
176,ndele,8.4109,20.6473,97.63,16,58,5.17,CF
177,hambantota,6.1241,81.1185,82.74,83,40,3.44,LK
178,olinda,-8.0089,-34.8553,82.13,69,75,9.22,BR
179,taoudenni,22.6783,-3.9836,85.01,9,2,5.3,ML
180,linxia,35.6003,103.2064,41.61,51,5,1.57,CN
181,alyangula,-13.8483,136.4192,84.87,75,68,10.67,AU
182,fort nelson,58.8053,-122.7002,-4.41,77,20,0.0,CA
183,matara,5.9485,80.5353,79.09,70,86,5.59,LK
184,nabire,-3.3667,135.4833,77.65,89,97,1.21,ID
185,galle,6.0367,80.217,80.19,70,96,13.56,LK
186,bambous virieux,-20.3428,57.7575,79.05,53,40,6.91,MU
187,norman wells,65.282,-126.8329,-3.96,84,20,0.0,CA
188,sinnamary,5.3833,-52.95,82.54,71,59,7.85,GF
189,thompson,55.7435,-97.8558,8.76,85,100,6.91,CA
190,kununurra,-15.7667,128.7333,84.18,84,90,6.91,AU
191,uyemskiy,64.4743,40.8524,28.45,100,100,0.0,RU
192,mount gambier,-37.8333,140.7667,58.91,72,100,5.64,AU
193,kristinehamn,59.3098,14.1081,36.16,68,64,10.65,SE
194,marsaxlokk,35.8419,14.5431,76.08,68,20,18.41,MT
195,kailua,21.4022,-157.7394,75.18,91,80,3.0,US
196,amot,59.5714,7.9877,27.77,68,98,6.46,NO
197,srednekolymsk,67.45,153.6833,-22.43,98,87,8.86,RU
198,sakakah,29.9697,40.2064,65.77,37,3,9.82,SA
199,beloha,-25.1667,45.05,87.69,35,2,15.32,MG
200,mayo,38.8876,-76.5119,37.98,73,75,13.8,US
201,stoke-on-trent,53.0042,-2.1854,51.53,77,90,11.01,GB
202,dovhe,48.3653,23.279,42.96,100,100,2.84,UA
203,kaeo,-35.1,173.7833,57.33,93,18,10.31,NZ
204,adre,13.4667,22.2,87.22,15,0,5.48,TD
205,port moresby,-9.4431,147.1797,80.02,83,0,3.44,PG
206,ribeira grande,38.5167,-28.7,63.0,59,100,9.22,PT
207,haines junction,60.7522,-137.5108,4.95,92,96,1.14,CA
208,vanavara,60.34,102.2797,-9.69,96,58,5.59,RU
209,padang,-0.9492,100.3543,77.0,89,94,3.69,ID
210,anadyr,64.75,177.4833,3.7,78,0,6.71,RU
211,lavrentiya,65.5833,-171.0,27.5,93,41,6.6,RU
212,chapais,49.7834,-74.8492,11.98,93,100,6.67,CA
213,pevek,69.7008,170.3133,-15.97,98,96,0.25,RU
214,kawalu,-7.3817,108.2082,74.39,93,100,2.04,ID
215,lasem,-6.6922,111.4527,80.65,81,100,4.54,ID
216,san patricio,28.017,-97.5169,57.06,64,100,8.63,US
217,mitu,1.1983,-70.1733,72.99,97,95,0.98,CO
218,nanortalik,60.1432,-45.2371,23.31,81,97,1.97,GL
219,goderich,43.7501,-81.7165,33.91,64,100,18.41,CA
220,obzor,42.8167,27.8833,70.27,74,41,8.81,BG
221,lazarev,52.225,141.5131,22.14,90,100,1.7,RU
222,yar-sale,66.8333,70.8333,3.88,87,100,21.45,RU
223,sobolevo,54.4299,31.8996,25.14,64,100,6.93,RU
224,andra,62.5147,65.8878,15.46,85,100,13.35,RU
225,vao,-22.6667,167.4833,73.04,79,88,10.45,NC
226,maceio,-9.6658,-35.7353,81.84,74,20,12.66,BR
227,castelo do piaui,-5.3222,-41.5525,89.6,40,61,4.38,BR
228,huty,50.1332,35.3439,33.33,65,88,5.41,UA
229,lorengau,-2.0226,147.2712,82.18,75,100,7.67,PG
230,camocim,-2.9022,-40.8411,85.32,59,83,11.34,BR
231,santa rosa,14.3122,121.1114,80.58,86,99,11.61,PH
232,mount isa,-20.7333,139.5,80.37,39,4,4.61,AU
233,novoorsk,51.381,58.9813,29.05,78,97,7.72,RU
234,palmetto,27.5214,-82.5723,54.0,62,0,10.36,US
235,barcelos,41.5388,-8.6151,59.14,70,19,9.6,PT
236,lazaro cardenas,17.9583,-102.2,73.83,88,9,4.32,MX
237,san carlos de bariloche,-41.1456,-71.3082,55.15,76,75,2.3,AR
238,pauini,-7.7136,-66.9764,73.45,96,100,1.07,BR
239,talnakh,69.4865,88.3972,7.21,87,100,31.54,RU
240,umm lajj,25.0213,37.2685,79.09,48,99,13.85,SA
241,yeppoon,-23.1333,150.7333,71.38,75,13,11.39,AU
242,faanui,-16.4833,-151.75,77.49,82,100,10.92,PF
243,margate,51.3813,1.3862,53.11,77,96,4.0,GB
244,indianola,41.3581,-93.5574,15.82,69,81,5.01,US
245,caxias,38.7031,-9.2767,64.47,64,40,19.57,PT
246,los llanos de aridane,28.6585,-17.9182,71.35,79,40,11.5,ES
247,chuy,-33.6971,-53.4616,72.99,54,76,6.33,UY
248,sampit,-2.5333,112.95,74.17,98,100,1.99,ID
249,synya,65.3718,58.0387,19.83,95,100,7.02,RU
250,egvekinot,66.3167,-179.1667,1.67,98,100,3.51,RU
251,ortona,42.3496,14.4039,63.66,80,24,10.09,IT
252,alofi,-19.0595,-169.9187,67.89,94,40,1.14,NU
253,shimoda,34.6667,138.95,58.03,73,1,3.51,JP
254,alice springs,-23.7,133.8833,80.15,50,50,8.05,AU
255,voh,-20.9667,164.7,74.32,81,98,5.84,NC
256,peravurani,10.3,79.1833,76.66,74,100,9.33,IN
257,khandyga,62.6667,135.6,-7.06,99,100,2.89,RU
258,ashland,40.8167,-82.2665,28.98,86,56,11.12,US
259,bukama,-9.2,25.85,92.62,40,12,3.11,CD
260,pochutla,15.7432,-96.4661,71.82,80,56,3.65,MX
261,tuatapere,-46.1333,167.6833,50.94,97,95,2.8,NZ
262,puertollano,38.6871,-4.1073,53.08,65,95,13.13,ES
263,zunyi,27.6867,106.9072,55.45,92,95,1.72,CN
264,derzhavinsk,51.1,66.3167,21.83,85,100,8.16,KZ
265,marsa matruh,31.3525,27.2453,80.8,19,3,23.02,EG
266,garissa,-0.4536,39.6401,87.51,51,93,6.06,KE
267,beringovskiy,63.05,179.3167,18.84,86,100,9.98,RU
268,christchurch,-43.5333,172.6333,59.92,94,100,13.8,NZ
269,andenes,69.3143,16.1194,33.78,80,0,11.5,NO
270,kruisfontein,-34.0033,24.7314,69.96,52,94,15.64,ZA
271,cabinda,-5.55,12.2,86.14,66,20,8.05,AO
272,devonport,-41.1667,146.35,52.02,87,10,5.12,AU
273,ketchikan,55.3422,-131.6461,33.69,76,62,3.42,US
274,richards bay,-28.783,32.0377,91.98,47,53,13.76,ZA
275,tessalit,20.1986,1.0114,83.43,10,89,11.68,ML
276,grindavik,63.8424,-22.4338,41.47,75,40,11.5,IS
277,todos santos,23.45,-110.2167,67.66,81,68,7.96,MX
278,waipawa,-41.4122,175.5153,56.79,98,96,6.22,NZ
279,severnyy-kospashskiy,59.0925,57.8008,8.6,54,68,1.66,RU
280,upernavik,72.7868,-56.1549,10.04,76,24,6.8,GL
281,nago,26.5881,127.9761,76.05,88,15,2.33,JP
282,tabou,4.423,-7.3528,83.23,68,23,8.05,CI
283,dudinka,69.4058,86.1778,7.63,92,100,26.98,RU
284,galesong,-5.3166,119.3661,75.22,83,100,8.86,ID
285,saskylakh,71.9167,114.0833,-31.79,98,33,7.25,RU
286,yellowknife,62.456,-114.3525,19.92,86,75,11.5,CA
287,charters towers,-20.1,146.2667,74.91,81,32,13.53,AU
288,pasighat,28.0667,95.3333,65.17,67,0,3.89,IN
289,palmer,42.1584,-72.3287,32.63,74,100,8.05,US
290,mango,27.9797,-82.3065,53.46,74,0,5.75,US
291,vostok,46.4856,135.8833,25.0,97,100,3.58,RU
292,leningradskiy,69.3833,178.4167,-5.35,96,62,7.14,RU
293,bethel,41.3712,-73.414,33.49,75,0,5.75,US
294,viedma,-40.8135,-62.9967,70.56,66,100,13.73,AR
295,aykhal,66.0,111.5,-11.65,93,95,13.51,RU
296,cordoba,-31.4135,-64.1811,86.76,31,0,19.57,AR
297,tambacounda,13.7539,-13.7586,94.62,10,88,13.53,SN
298,fier,40.7239,19.5561,70.43,60,33,21.21,AL
299,urumqi,43.801,87.6005,23.95,86,75,2.24,CN
300,santa isabel do rio negro,-0.4139,-65.0192,74.62,95,100,1.32,BR
301,sioux lookout,50.1001,-91.917,12.27,79,100,6.91,CA
302,thai binh,20.45,106.3333,78.84,83,27,7.94,VN
303,harper,4.375,-7.7169,83.7,66,16,8.84,LR
304,ancud,-41.8697,-73.8203,53.87,92,83,5.88,CL
305,shahr-e babak,30.1165,55.1186,59.31,49,100,20.74,IR
306,karratha,-20.7377,116.8463,75.58,56,10,22.77,AU
307,kolno,53.4115,21.9291,31.24,65,95,12.06,PL
308,ponta do sol,32.6667,-17.1,71.13,61,53,7.05,PT
309,awjilah,29.1081,21.2869,83.03,14,1,12.62,LY
310,itarema,-2.9248,-39.9167,84.69,58,91,14.14,BR
311,el bagre,7.5927,-74.8086,73.72,99,100,1.79,CO
312,soyo,-6.1349,12.3689,81.91,65,53,9.75,AO
313,pimentel,-6.8367,-79.9342,62.89,88,0,10.36,PE
314,bahia blanca,-38.7196,-62.2724,68.29,87,100,4.0,AR
315,noumea,-22.2763,166.4572,71.58,84,95,6.62,NC
316,cidreira,-30.1811,-50.2056,71.58,64,20,11.27,BR
317,susanville,40.4163,-120.653,31.84,67,0,8.05,US
318,west valley city,40.6916,-112.0011,30.63,83,40,5.75,US
319,basco,20.4487,121.9702,81.36,79,87,20.69,PH
320,rawson,-43.3002,-65.1023,65.37,59,72,12.44,AR
321,constitucion,-35.3333,-72.4167,62.04,73,5,7.27,CL
322,itarantim,-15.6597,-40.0656,71.55,91,100,3.8,BR
323,goundam,16.4145,-3.6708,88.14,9,61,10.63,ML
324,tura,25.5198,90.2201,64.65,90,1,4.25,IN
325,kristiinankaupunki,62.2743,21.376,30.87,77,78,7.25,FI
326,sande,53.5049,8.0142,36.05,89,100,18.52,DE
327,bay roberts,47.5999,-53.2648,39.25,87,70,13.0,CA
328,nhulunbuy,-12.2333,136.7667,84.81,79,84,4.61,AU
329,igarka,67.4667,86.5833,9.54,94,100,20.31,RU
330,geraldton,-28.7667,114.6,59.41,55,77,10.36,AU
331,sangueya,10.7,-14.3667,88.56,45,100,2.75,GN
332,troitskiy,57.0603,63.7481,7.21,93,7,6.53,RU
333,hokitika,-42.7167,170.9667,58.12,92,100,1.23,NZ
334,forio,40.7342,13.8646,70.43,81,34,10.0,IT
335,barguzin,53.6167,109.6167,12.25,89,95,3.69,RU
336,tocopilla,-22.092,-70.1979,65.64,72,30,3.24,CL
337,esperance,-33.8667,121.9,55.26,77,81,23.44,AU
338,mandan,46.8267,-100.8896,3.81,75,75,18.41,US
339,presidencia roque saenz pena,-26.7852,-60.4388,83.79,41,0,12.12,AR
340,manoel urbano,-8.8389,-69.2597,72.84,99,100,0.81,BR
341,yushu,44.8,126.5333,27.7,85,65,5.79,CN
342,angoram,-4.0625,144.0661,75.96,96,86,1.97,PG
343,saint-augustin,51.226,-58.6502,28.0,96,100,7.54,CA
344,snyder,32.7179,-100.9176,31.32,80,0,13.8,US
345,zapolyarnyy,69.4154,30.8136,29.48,85,100,6.91,RU
346,cadillac,44.2519,-85.4012,24.71,86,100,6.91,US
347,pangody,65.85,74.4859,11.75,93,100,18.25,RU
348,klaksvik,62.2266,-6.589,47.32,86,95,35.66,FO
349,alugan,12.2188,125.4808,79.0,89,100,8.03,PH
350,byron bay,-28.65,153.6167,60.71,70,22,0.85,AU
351,aras,42.5617,-2.356,48.63,81,75,8.05,ES
352,kotido,2.9806,34.1331,84.36,29,50,14.32,UG
353,garowe,8.4054,48.4845,90.32,19,0,5.82,SO
354,verkhnevilyuysk,63.4453,120.3167,-26.23,99,25,3.27,RU
355,bilibino,68.0546,166.4372,-29.43,98,67,3.31,RU
356,dawson creek,55.7666,-120.2362,1.04,85,0,0.0,CA
357,lewistown,40.5992,-77.5714,32.25,84,75,4.61,US
358,meulaboh,4.1363,96.1285,78.48,80,80,2.33,ID
359,burns lake,54.2331,-125.7533,-4.58,95,85,1.74,CA
360,socorro,31.6546,-106.3033,48.88,48,40,6.91,US
361,sao raimundo nonato,-9.0153,-42.6994,83.28,58,95,8.01,BR
362,tomaszow lubelski,50.4477,23.4162,31.73,76,100,5.12,PL
363,port hedland,-20.3167,118.5667,75.25,69,41,14.97,AU
364,college,64.8569,-147.8028,13.59,85,40,0.0,US
365,sabha,27.0377,14.4283,78.51,14,4,8.93,LY
366,parrsboro,45.4001,-64.332,32.56,60,48,5.99,CA
367,poso,-1.3959,120.7524,77.07,93,100,5.97,ID
368,fraserburgh,57.6874,-2.0184,48.11,86,100,39.93,GB
369,kirakira,-10.4544,161.9205,79.2,79,92,3.83,SB
370,sciacca,37.5082,13.0881,69.03,80,20,19.95,IT
371,sao felix do xingu,-6.6447,-51.995,83.07,65,93,1.25,BR
372,san andres,12.5847,-81.7006,80.62,83,20,8.05,CO
373,portland,45.5234,-122.6762,40.95,49,0,13.0,US
374,manbij,36.5281,37.9549,64.22,54,83,0.54,SY
375,koslan,63.4564,48.8989,14.85,98,95,3.22,RU
376,pandharpur,17.6667,75.3333,80.44,30,2,7.67,IN
377,kardailovo,51.5386,53.9042,32.18,87,100,10.27,RU
378,mosquera,4.7059,-74.2302,53.69,94,100,3.44,CO
379,camacha,33.0833,-16.3333,65.62,60,40,13.8,PT
380,taltal,-25.4,-70.4833,63.37,82,47,1.97,CL
381,gigmoto,13.7796,124.39,80.98,85,99,11.83,PH
382,okha,53.5739,142.9478,21.42,90,100,5.14,RU
383,le vauclin,14.5452,-60.8388,80.85,78,20,10.36,MQ
384,calama,-22.4667,-68.9333,52.29,20,0,25.32,CL
385,biak,-0.9131,122.8766,78.44,82,98,1.57,ID
386,mahebourg,-20.4081,57.7,79.09,53,40,6.91,MU
387,airai,-8.9266,125.4092,63.9,93,100,1.28,TL
388,namibe,-15.1961,12.1522,81.23,69,0,11.5,AO
389,ixtapa,20.7,-105.2,70.23,86,0,3.09,MX
390,roswell,34.0232,-84.3616,32.56,77,0,6.91,US
391,zaykovo,57.5613,62.7568,8.44,93,6,6.2,RU
392,rocha,-34.4833,-54.3333,73.98,60,63,6.58,UY
393,evensk,61.95,159.2333,10.49,94,100,8.86,RU
394,el tarra,8.5756,-73.0949,74.79,97,100,1.3,CO
395,pljevlja,43.3333,19.3333,54.09,80,100,9.48,ME
396,vestmanna,62.1564,-7.1664,45.52,81,75,27.63,FO
397,kumo,10.0447,11.2122,90.52,19,5,9.08,NG
398,baikunthpur,23.25,82.55,65.55,44,8,4.52,IN
399,srandakan,-7.9386,110.2506,78.3,87,100,4.16,ID
400,alakurtti,66.9672,30.3491,29.39,95,100,0.83,RU
401,fethiye,36.6217,29.1164,73.27,47,100,14.65,TR
402,lagoa,39.05,-27.9833,61.03,67,44,10.85,PT
403,hay river,60.8156,-115.7999,22.98,74,75,13.8,CA
404,clovis,36.8252,-119.7029,52.84,81,40,0.0,US
405,santiago,-33.4569,-70.6483,72.25,68,0,6.91,CL
406,birjand,32.8663,59.2211,55.87,71,75,4.61,IR
407,aylmer,42.7668,-80.983,30.78,85,58,14.88,CA
408,douglas,41.3,-96.167,13.59,74,0,13.8,US
409,bocas del toro,9.3333,-82.25,77.79,80,100,6.67,PA
410,jutai,-5.1833,-68.9,73.71,98,100,2.01,BR
411,riposto,37.7306,15.2009,79.41,65,3,2.15,IT
412,iracoubo,5.4802,-53.2011,82.65,72,64,9.1,GF
413,maldonado,-34.6667,-54.9167,68.23,54,68,7.72,UY
414,high level,58.5169,-117.136,3.31,92,0,2.3,CA
415,avera,33.194,-82.5271,28.38,69,0,5.01,US
416,tanda,26.55,82.65,69.89,36,0,4.5,IN
417,dingle,10.9995,122.6711,74.95,92,100,8.97,PH
418,aksu,41.1231,80.2644,41.92,30,33,2.75,CN
419,tikrit,34.6071,43.6782,71.71,36,0,8.84,IQ
420,ornskoldsvik,63.2909,18.7153,22.15,93,100,5.75,SE
421,west wendover,40.7391,-114.0733,22.21,80,0,3.44,US
422,half moon bay,37.4636,-122.4286,50.99,82,0,3.44,US
423,pervomayskiy,53.2485,40.2871,29.66,94,100,14.18,RU
424,birin,26.8865,88.0718,53.35,78,31,3.65,NP
425,kadoma,34.7333,135.5833,57.18,58,20,6.91,JP
426,pangnirtung,66.1451,-65.7125,-0.11,81,56,6.38,CA
427,lompoc,34.6391,-120.4579,46.58,100,75,6.91,US
428,ponta delgada,37.7333,-25.6667,62.51,97,39,4.43,PT
429,atar,20.5169,-13.0499,87.57,9,0,10.0,MR
430,saint-jean-port-joli,47.2171,-70.2658,23.81,78,100,18.12,CA
431,challapata,-18.9,-66.7667,54.7,39,12,0.51,BO
432,kuching,1.55,110.3333,75.42,94,40,5.99,MY
433,emerald,-23.5333,148.1667,75.34,47,72,19.95,AU
434,puerto escondido,15.85,-97.0667,72.43,78,40,8.05,MX
435,muskegon,43.3,-86.1334,30.06,72,100,16.11,US
436,channel-port aux basques,47.5702,-59.1367,36.93,74,100,31.25,CA
437,fukue,32.6881,128.8419,66.92,64,91,13.69,JP
438,parkersburg,39.2667,-81.5615,31.51,75,100,8.05,US
439,henties bay,-22.116,14.2845,64.96,72,90,10.6,NA
440,sinop,41.7711,34.8709,55.83,54,100,9.62,TR
441,vanimo,-2.6741,141.3028,79.74,84,100,3.94,PG
442,nahrin,36.0649,69.1334,58.26,27,92,1.86,AF
443,vitim,59.4511,112.5578,-11.31,100,86,3.33,RU
444,pecos,31.4229,-103.4932,34.63,64,0,9.22,US
445,marabba,12.35,32.1833,91.45,11,6,11.63,SD
446,hvolsvollur,63.7533,-20.2243,45.27,81,45,5.99,IS
447,deputatskiy,69.3,139.9,-25.29,89,42,4.97,RU
448,suicheng,33.8963,117.9331,59.99,69,99,6.49,CN
449,bubaque,11.2833,-15.8333,82.72,50,100,11.27,GW
450,ugoofaaru,5.6667,73.0,82.26,73,96,9.78,MV
451,seda,57.65,25.75,27.05,57,97,8.55,LV
452,verkhniy fiagdon,42.8333,44.3053,52.47,61,100,2.01,RU
453,port lincoln,-34.7333,135.8667,66.9,82,22,8.19,AU
454,castro,-24.7911,-50.0119,62.51,48,0,9.37,BR
455,shache,38.4167,77.2406,46.27,17,57,5.97,CN
456,tarko-sale,64.9225,77.785,13.37,91,100,25.75,RU
457,valdivia,-39.8142,-73.2459,55.49,100,94,0.89,CL
458,marzuq,14.4,46.4667,82.06,16,26,7.81,YE
459,miri,4.4148,114.0089,80.74,89,40,4.61,MY
460,praia da vitoria,38.7333,-27.0667,61.75,82,75,7.0,PT
461,san policarpo,12.1791,125.5072,80.04,88,100,12.21,PH
462,hasaki,35.7333,140.8333,52.21,64,92,8.63,JP
463,kalangala,-0.3089,32.225,68.05,81,99,7.09,UG
464,scarborough,54.2797,-0.4044,50.67,90,100,8.01,GB
465,holme,56.1138,10.1725,43.18,71,79,20.38,DK
466,manzhouli,49.6,117.4333,20.12,90,100,4.25,CN
467,atambua,-9.1061,124.8925,77.81,82,99,0.87,ID
468,porbandar,21.6422,69.6093,83.14,40,0,11.21,IN
469,itamaraca,-7.7478,-34.8256,82.45,69,30,9.86,BR
470,jiaojiang,28.6803,121.4428,66.0,93,89,4.05,CN
471,muroto,33.2833,134.15,62.08,60,36,11.16,JP
472,bundaberg,-24.85,152.35,68.22,69,0,1.01,AU
473,sorland,67.667,12.6934,44.46,53,83,9.48,NO
474,pasaje,-3.3333,-79.8167,70.9,90,99,1.25,EC
475,mitsamiouli,-11.3847,43.2844,89.89,48,20,11.5,KM
476,severo-yeniseyskiy,60.3725,93.0408,-3.17,87,100,10.11,RU
477,comodoro rivadavia,-45.8667,-67.5,66.06,45,0,12.66,AR
478,edd,13.9297,41.6925,91.42,39,2,22.28,ER
479,olafsvik,64.8945,-23.7142,43.47,75,63,16.71,IS
480,bondo,3.8146,23.6866,81.19,63,74,2.13,CD
481,chokwe,-24.5333,32.9833,102.49,22,2,7.05,MZ
482,agirish,61.9247,63.0231,13.24,86,95,11.7,RU
483,murmashi,68.8154,32.8115,28.81,100,75,0.0,RU
484,lokosovo,61.1333,74.8167,7.03,74,100,16.53,RU
485,virtsu,58.5716,23.5115,33.06,50,13,14.2,EE
486,pinawa,50.1489,-95.8811,5.79,90,100,7.65,CA
487,graaff-reinet,-32.2522,24.5308,77.92,49,43,11.12,ZA
488,kumano,34.3442,132.5894,54.52,68,0,5.86,JP
489,kangshan,28.8812,116.4311,61.97,91,100,8.28,CN
490,san rafael,-34.6177,-68.3301,74.32,49,2,12.73,AR
491,banda aceh,5.5577,95.3222,80.85,81,96,10.69,ID
492,huejuquilla el alto,22.6,-103.8667,49.89,77,4,0.58,MX
493,tecoanapa,16.5167,-98.75,74.91,87,78,2.68,MX
494,cochrane,51.1834,-114.4687,16.39,35,0,12.66,CA
495,castro verde,37.6983,-8.0858,56.62,53,5,19.55,PT
496,wadi musa,30.3222,35.4793,62.29,40,1,1.41,JO
497,mehamn,71.0357,27.8492,33.75,93,0,6.91,NO
498,minot,48.2325,-101.2963,5.22,61,75,21.85,US
499,boende,-0.2167,20.8667,74.77,79,100,4.34,CD
500,stephenville,32.2207,-98.2023,41.92,78,0,0.0,US
501,bam,29.106,58.357,70.59,31,91,8.68,IR
502,usinsk,65.9939,57.5281,16.75,86,74,14.38,RU
503,guerrero negro,27.9769,-114.0611,59.09,62,43,6.87,MX
504,mangrol,21.1167,70.1167,81.3,46,1,7.61,IN
505,sabang,5.8933,95.3214,82.31,77,100,15.88,ID
506,luwuk,-0.9516,122.7875,79.34,84,100,2.48,ID
507,samarai,-10.6167,150.6667,83.66,77,61,11.45,PG
508,fort morgan,40.2503,-103.8,9.82,92,100,6.91,US
509,mandalgovi,45.7625,106.2708,17.82,68,70,21.59,MN
510,touros,-5.1989,-35.4608,81.73,65,66,12.84,BR
511,saint-joseph,-21.3667,55.6167,77.38,65,11,6.87,RE
512,port blair,11.6667,92.75,80.64,83,40,2.3,IN
513,san sebastian,43.3128,-1.975,53.44,71,100,8.01,ES
514,tezu,27.9167,96.1667,64.26,53,0,4.68,IN
515,koulamoutou,-1.1303,12.4736,84.58,61,91,2.66,GA
516,ovalle,-30.5983,-71.2003,71.11,51,0,2.93,CL
517,kissidougou,9.1848,-10.0999,82.44,33,95,5.3,GN
518,dubbo,-32.25,148.6167,53.73,82,6,0.0,AU
519,palaikastron,35.2,26.25,71.71,63,86,11.79,GR
520,malabo,3.75,8.7833,84.06,74,40,6.91,GQ
521,mogadouro,41.3403,-6.7119,52.25,61,32,13.89,PT
522,muriwai beach,-36.8167,174.45,59.56,96,23,9.89,NZ
523,preeceville,51.95,-102.6677,10.51,82,100,18.95,CA
524,vardo,70.3705,31.1107,35.58,87,75,6.91,NO
525,sherbakul,54.6316,72.3963,3.79,97,49,4.14,RU
526,nouakchott,18.0858,-15.9785,91.33,25,0,13.06,MR
527,omboue,-1.5746,9.2618,80.04,81,77,9.04,GA
528,guia lopes da laguna,-21.4578,-56.1142,81.01,37,0,9.44,BR
529,hasanabad,36.5465,61.0543,64.62,63,20,4.61,IR
530,mirabad,30.4362,61.8383,76.53,19,92,5.48,AF
531,buraydah,26.326,43.975,75.65,37,100,13.06,SA
532,birao,10.2849,22.7882,94.46,14,87,9.46,CF
533,varca,15.2167,73.9167,81.34,56,39,8.52,IN
534,wufeng,27.45,104.8333,47.05,81,88,4.61,CN
535,brae,60.3964,-1.353,45.61,70,100,33.87,GB
536,inirida,3.8653,-67.9239,72.5,99,99,0.89,CO
537,nishihara,26.1842,127.7558,76.28,89,40,2.3,JP
538,kloulklubed,7.0419,134.2556,75.7,73,100,8.21,PW
539,warri,5.5167,5.75,94.68,42,12,2.77,NG
540,havelock,34.8791,-76.9013,42.93,90,0,3.44,US
541,tiznit,29.5833,-9.5,66.92,65,88,12.93,MA
542,narasapur,16.45,81.6667,78.4,52,26,8.66,IN
543,innisfail,-17.5333,146.0333,78.17,80,30,2.89,AU
544,sulangan,11.1373,123.7228,79.29,86,100,17.36,PH
545,alihe,50.5667,123.7167,18.81,94,87,1.88,CN
546,teya,60.3778,92.6267,-0.92,88,100,8.79,RU
547,ibra,22.6906,58.5334,88.52,24,1,10.69,OM
548,luderitz,-26.6481,15.1594,72.5,50,60,26.6,NA
549,paveh,35.0434,46.3565,51.93,46,0,7.25,IR
550,nimaparha,20.0667,86.0167,79.2,52,29,6.69,IN
551,kermanshah,34.3142,47.065,58.1,40,20,6.91,IR
552,portlethen,57.0547,-2.1307,49.77,91,75,26.46,GB
553,naze,28.3667,129.4833,70.72,89,91,15.55,JP
